{
  "address_components": [
    {
      "long_name": "487",
      "short_name": "487",
      "types": [
        "street_number"
      ]
    },
    {
      "long_name": "Keap Street",
      "short_name": "Keap St",
      "types": [
        "route"
      ]
    },
    {
      "long_name": "Williamsburg",
      "short_name": "Williamsburg",
      "types": [
        "neighborhood",
        "political"
      ]
    },
    {
      "long_name": "Brooklyn",
      "short_name": "Brooklyn",
      "types": [
        "political",
        "sublocality",
        "sublocality_level_1"
      ]
    },
    {
      "long_name": "Kings County",
      "short_name": "Kings County",
      "types": [
        "administrative_area_level_2",
        "political"
      ]
    },
    {
      "long_name": "New York",
      "short_name": "NY",
      "types": [
        "administrative_area_level_1",
        "political"
      ]
    },
    {
      "long_name": "United States",
      "short_name": "US",
      "types": [
        "country",
        "political"
      ]
    },
    {
      "long_name": "11211",
      "short_name": "11211",
      "types": [
        "postal_code"
      ]
    }
  ],
  "formatted_address": "487 Keap St, Brooklyn, NY 11211, USA",
  "geometry": {
    "bounds": {
      "northeast": {
        "lat": 40.7134633,
        "lng": -73.9519842
      },
      "southwest": {
        "lat": 40.7131563,
        "lng": -73.95247960000002
      }
    },
    "location": {
      "lat": 40.7133111,
      "lng": -73.9521927
    },
    "location_type": "ROOFTOP",
    "viewport": {
      "northeast": {
        "lat": 40.7146587802915,
        "lng": -73.9508829197085
      },
      "southwest": {
        "lat": 40.7119608197085,
        "lng": -73.95358088029151
      }
    }
  },
  "place_id": "ChIJEcS64FhZwokRxzc2GWynmkA",
  "types": [
    "premise"
  ]
}